[{"id":"mock-1","title":"Club Amnesia Milano","description":"Serata house e techno con i migliori DJ internazionali.","category":"club","date":"2026-04-27T16:26:50.355Z","startTime":"23:00","endTime":"05:00","venue":{"name":"Amnesia Milano","address":"Via Segantini 40, Milano","lat":45.4547,"lng":9.2218},"price":{"min":15,"max":25,"currency":"EUR"},"ticketUrl":"https://example.com/amnesia-milano","source":"mock"},{"id":"mock-2","title":"Aperitivo al Naviglio","description":"Aperitivo con vista sul Naviglio Grande, spritz e tartine inclusi.","category":"aperitivo","date":"2026-04-28T16:26:50.355Z","startTime":"18:30","endTime":"21:00","venue":{"name":"Bar Naviglio Grande","address":"Alzaia Naviglio Grande 14, Milano","lat":45.4484,"lng":9.1742},"price":"free","ticketUrl":"https://example.com/aperitivo-naviglio","source":"mock"},{"id":"mock-3","title":"Teatro Piccolo — Il Seagull","description":"Cechov portato in scena dalla compagnia stabile del Piccolo Teatro.","category":"theatre","date":"2026-04-29T16:26:50.355Z","startTime":"20:30","endTime":"23:00","venue":{"name":"Piccolo Teatro Milano","address":"Via Rovello 2, Milano","lat":45.4668,"lng":9.1863},"price":{"min":25,"max":35,"currency":"EUR"},"ticketUrl":"https://example.com/piccolo-teatro","source":"mock"},{"id":"mock-4","title":"Notte Bianca Brera","description":"Gallerie aperte, musica dal vivo e street food nel quartiere Brera.","category":"other","date":"2026-05-01T16:26:50.355Z","startTime":"20:00","endTime":"02:00","venue":{"name":"Quartiere Brera","address":"Via Brera 28, Milano","lat":45.4724,"lng":9.1861},"price":"free","ticketUrl":"https://example.com/notte-bianca-brera","source":"mock"},{"id":"mock-5","title":"Concerto Jazz al Blue Note","description":"Serata jazz con quartetto dal vivo e cena facoltativa.","category":"concert","date":"2026-05-03T16:26:50.355Z","startTime":"21:00","endTime":"23:30","venue":{"name":"Blue Note Milano","address":"Via Borsieri 37, Milano","lat":45.4899,"lng":9.1864},"price":{"min":20,"max":30,"currency":"EUR"},"ticketUrl":"https://example.com/bluenote-milano","source":"mock"}]